stop_id,stop_name
BUS002,"3rd St & Ferry St (NW Corner): BUS002"
BUS010,"The Cottages on Lindberg on Mida Dr: BUS010"
BUS011,"Aspire Apts at Discovery Park: BUS011"
BUS046,"Kent Ave @ Purdue Research Center: BUS046"
BUS047,"Win Hentschel Blvd & MED Institute: BUS047"
BUS048,"Mcclure Ave @ Kurz Tech Center: BUS048"
BUS050,"Shenandoah Drive at Munger Trail Crossing: BUS050"
BUS051,"Shenandoah Dr at Munger Trail Crossing: BUS051"
BUS061,"Stadium Ave & Salisbury St (SW Corner): BUS061"
BUS063,"Stone Hall on Oval Dr: BUS063"
BUS064,"University Hall: BUS064"
BUS066,"Launch Apts (North, @Shelter): BUS066"
BUS100E,"Beau Jardin Apts on Yeager (SE Corner): BUS100E"
BUS100W,"Beau Jardin Apts on Yeager (at Shelter): BUS100W"
BUS101NE,"Mayfair Village Apts on Sycamore Ln: BUS101NE"
BUS101SW,"Mayfair Village Apts on Sycamore Ln: BUS101SW"
BUS102NE,"Carlisle Rd & Lindberg Rd (North of): BUS102NE"
BUS102NW,"Carlisle Rd & Lindberg Rd (NW Corner): BUS102NW"
BUS104N,"Anthrop Dr & Yeager Rd (NE Corner): BUS104N"
BUS104S,"Yeager Rd & Anthrop Dr (at Shelter): BUS104S"
BUS105,"Northwestern Ave & Evergreen St(SE Corner): BUS105"
BUS107,"Jischke Dr & 3rd St (NE Corner): BUS107"
BUS108,"Kossuth St & 14th St (SW Corner): BUS108"
BUS110NE,"Shining Armor Ln & Mason Dixon Dr (NE): BUS110NE"
BUS110SE,"Mason Dixon Dr & Shining Armor Ln (SE):BUS110SE"
BUS111,"Lambert Fieldhouse on Stadium Ave: BUS111"
BUS112NE,"Mason Dixon Dr & Morehouse Rd (NE Corner):BUS112NE"
BUS112SE,"Morehouse Rd & Mason Dixon Dr (SE Corner):BUS112SE"
BUS113NE,"Morehouse Rd & Ellison Dr (East Side): BUS113NE"
BUS113NW,"Morehouse Rd & Ellison Dr (West Side): BUS113NW"
BUS114E,"Trailside Flats on Morehouse Rd (East): BUS114E"
BUS114W,"Trailside Flats on Morehouse Rd (West): BUS114W"
BUS115N,"Kalberer Rd & Morehouse Rd (NE Corner): BUS115N"
BUS115S,"Kalberer Rd & Morehouse Rd (SE Corner): BUS115S"
BUS116,"Ferry St & 28th St (NW Corner): BUS116"
BUS116S,"Ferry St & 28th St (SW Corner): BUS116S"
BUS117,"Yeager Rd & McClure Ave (SW Corner): BUS117"
BUS118,"Yeager Rd & Roxboro St (SE Corner): BUS118"
BUS119,"Country Villa Apts on Yeager Rd (SE Corner): BUS119"
BUS120,"McCarty Ln & Industrial Dr (SW Corner): BUS120"
BUS123E,"Nobb Hill Apts on Happy Hollow Rd: BUS123E"
BUS123W,"Nobb Hill Apts on Happy Hollow Rd (at Shelter): BUS123W"
BUS124,"River Rd & Quincy St (at Shelter): BUS124"
BUS125,"Squirrel Park on Nimitz Dr (at Crosswalk): BUS125"
BUS126,"Northwestern Ave & Elm Dr (SE Corner): BUS126"
BUS128,"Ferry St & 31st St (SW Corner): BUS128"
BUS129,"Peppermill Apts on Yeager Rd (NW Corner): BUS129"
BUS130,"Westminster Village at Westminster Dr & Salisbury St (NW Corner): BUS130"
BUS131W,"Westminster Village at Westminster Cir & Salisbury St (NW Corner): BUS131W"
BUS132,"Elmwood Ave & Rainbow Dr (SW Corner): BUS132"
BUS133,"Cumberland Pointe on Cumberland Ave(South): BUS133"
BUS134,"Howarth Center: BUS134"
BUS136,"Cumberland Ave & Manchester St (SW Corner): BUS136"
BUS137,"Four Points Sheraton on Cumberland Ave: BUS137"
BUS138,"Cumberland Ave & Salisbury St (SW Corner): BUS138"
BUS141,"SR 38 at Shoe Carnival: BUS141"
BUS142N,"Ivy Tech on Creasy Ln: BUS142N"
BUS142S,"Ivy Tech on Creasy Ln (at Shelter): BUS142S"
BUS143,"CityBus Offices - Canal Rd (1A by Request): BUS143"
BUS144,"Univ Crossing Apts Soldiers Home (@Shelter) :BUS144"
BUS145E,"Launch Apts (North Drive): BUS065"
BUS146,"Aviation Technology Bldg: BUS146"
BUS148,"4th St & Thise Ct (SE Corner): BUS148"
BUS149,"Salisbury St & Kent Ave (at Shelter): BUS149"
BUS150,"Alabama St & 4th St (SW Corner): BUS150"
BUS151,"Progress Dr & South St (SE Corner): BUS151"
BUS152,"River Walk Apartments on 9th St: BUS152"
BUS153,"Young Hall on Grant St (West): BUS153"
BUS154,"Young Hall on Grant St (East): BUS154"
BUS155,"Edgelea Elementary School on 18th St: BUS155"
BUS156,"Wabash Landing on State St (at Shelter): BUS156"
BUS157,"Roundtable Dr & Shining Armor Ln (SW Corner): BUS157"
BUS158,"Main St & South St (SE Corner): BUS158"
BUS159,"Old Romney Rd & SR 25 (NW Corner): BUS159"
BUS160,"Tick Tock Tavern: BUS160"
BUS161,"Northwestern Ave & Yeager Rd (NW Corner): BUS161"
BUS162,"Northwestern Ave & Neil Armstrong Dr (NW): BUS162"
BUS165,"3rd St & Alabama St (SE Corner): BUS165"
BUS166,"State Street Office Facility: BUS166"
BUS167,"State St & US-231 (East of): BUS167"
BUS168,"Entomology Field Operations Building: BUS168"
BUS169,"Northwestern Ave & Chelsea Rd (West Side): BUS169"
BUS170,"US 231/52  & Wyndham Way (East of): BUS170"
BUS171,"Meijer West Lafayette: BUS171"
BUS173,"SR 26 & Scarlett Dr (SW Corner): BUS173"
BUS175,"Klondike Rd & E Pine Ave: BUS175"
BUS176,"Klondike Rd & SR 26: BUS176"
BUS179,"Alight West Lafayette: BUS179"
BUS181,"RRX on Brady Ln (SW Corner): BUS181"
BUS182,"14th St & Central Ave (NW Corner): BUS182"
BUS184,"Grissom Hall on Grant St (at Shelter): BUS184"
BUS185,"2nd St & Columbia St (SE Corner): BUS185"
BUS186,"River Rd & Williams St (NW Corner): BUS186"
BUS187NW,"18th St & Teal Rd (West of): BUS187NW"
BUS188,"2nd St & Main St (SE Corner): BUS188"
BUS190,"Armstrong Hall on Stadium Ave (@Shelter): BUS190"
BUS191,"Frozen Custard on Main St: BUS191"
BUS192,"Creasy Ln & South St (West Side North of): BUS192"
BUS193E,"South St & Creasy Ln (East of): BUS193E"
BUS194,"Fountain St & 4th St (NW Corner): BUS194"
BUS195,"Lindberg Rd & Klondike Rd (NE Corner): BUS195"
BUS196E,"Earl Ave & Union St (Southeast of): BUS196E"
BUS196W,"Earl Ave & Union St (Southwest of): BUS196W"
BUS198,"18th St & JR Hiatt Dr (NE Corner): BUS198"
BUS200N,"Harper Dr & Julia Ln (NW Corner): BUS200N"
BUS200S,"Julia Ln & Harper Dr (SW Corner): BUS200S"
BUS201,"Jischke Dr & Stadium Ave (SE Corner): BUS201"
BUS203,"Northwestern Ave & Northridge Dr(SE Corner):BUS203"
BUS204,"Lafayette Blind on Klondike Rd: BUS204"
BUS205,"Lindberg Rd & Kestral Blvd (NE Corner): BUS205"
BUS206,"South St & 14th St (SW Corner): BUS206"
BUS207,"Wayne Terrace & Elmwood Ave (SW Corner): BUS207"
BUS208,"Old Romney Rd & US52 / SR 25 (South of): BUS208"
BUS209,"Elmwood Ave & Underwood St (SE Corner): BUS209"
BUS210,"14th St & Adams St (NW Corner): BUS210"
BUS211,"Twyckenham Blvd & Old Romney (NW Corner): BUS211"
BUS212,"Romney Meadows Apts (at Shelter): BUS212"
BUS213,"Steven Beering Dr & Tower Dr (Southeast of): BUS213"
BUS213S,"Steven Beering Dr & Tower Dr (Southwest of): BUS213S"
BUS214,"Old Romney Rd & US52 / SR25 (NE Corner): BUS214"
BUS215,"CityBus Center: BUS215"
BUS216E,"Main St & 24th St (North of): BUS216E"
BUS216W,"Main St & 24th St (Northwest of): BUS216W"
BUS217,"Purdue Village Bldg 142 (at Shelter): BUS217"
BUS218NE,"Cumberland Ave & Yeager Rd (East of): BUS218NE"
BUS218NW,"Yeager Rd & Cumberland Ave (NW Corner): BUS218NW"
BUS218SE,"Yeager Rd & Cumberland Ave (SE Corner): BUS218SE"
BUS219E,"Sagamore Pkwy S & National Dr (SE Corner): BUS219E"
BUS219W,"Sagamore Pkwy S & National Dr (NW Corner): BUS219W"
BUS220SE,"9th St & Brown St (SE Corner): BUS220SE"
BUS221E,"181 Sagamore Pkwy S: BUS221E"
BUS221W,"178 Sagamore Pkwy S: BUS221W"
BUS222,"Twyckenham Blvd & Old Romney Rd (NE Corner):BUS222"
BUS223,"Lodge Apts on Cumberland Ave (at Shelter): BUS223"
BUS224,"Salisbury St & Leslie Ave (NW Corner): BUS224"
BUS227,"Schuyler Ave & 20th St (NE Corner): BUS227"
BUS230N,"Wabash Center on Greenbush St (at Shelter): BUS230N"
BUS230S,"Greenbush Crossing Apartments: BUS230S"
BUS231N,"Greenbush St & Sagamore Pkwy N (West of): BUS231N"
BUS231S,"Greenbush St & Sagamore Pkwy N (SW Corner):BUS231S"
BUS236,"McCormick Rd & Lindberg Rd (SE Corner): BUS236"
BUS239,"Twyckenham Blvd & CR 10W (North): BUS239"
BUS240,"4th St & Fairmont St (NW Corner): BUS240"
BUS241,"Logan Ave & 9th St (NE Corner): BUS241"
BUS242,"Columbia St & 9th St (NE Corner): BUS242"
BUS243N,"Columbia St & 7th St (NE Corner): BUS243N"
BUS244,"Ferry St & 26th St (SW Corner): BUS244"
BUS245NW,"Market Square (WEST) on Greenbush St: BUS245NW"
BUS245SE,"Market Square (EAST) on Greenbush St: BUS245SE"
BUS245SW,"Market Square (WEST) on Greenbush St: BUS245SW"
BUS246,"24th St & Schuyler Ave (South of): BUS246"
BUS248,"Columbia St & 4th St (NE Corner): BUS248"
BUS249,"Discovery Parking Lot (at Shelter): BUS249"
BUS250,"Sagamore Pkwy W & Geddes Way (South of): BUS250"
BUS251E,"McCormick Rd & Stadium Ave (NE Corner): BUS251E"
BUS251W,"McCormick Rd & Stadium Ave (NW Corner): BUS251W"
BUS253E,"Kossuth St & 9th St (East of): BUS253E"
BUS254,"Elston Rd & Old US231 (West of): BUS254"
BUS255,"9th St & Ferry St (Northeast of): BUS255"
BUS256N,"State St & 18th St (NE Corner): BUS256N"
BUS256S,"State St & 18th St (SE Corner): BUS256S"
BUS257,"Meijer Store East (at Shelter): BUS257"
BUS258,"Old US 231S & Elston Rd: BUS258"
BUS260,"Krannert Grad School: BUS260"
BUS261,"4th St & Teal Rd (North of): BUS261"
BUS262,"Nimitz Dr & Halsey Dr (SW Corner): BUS262"
BUS263,"Purdue Village Preschool on Nimitz Dr: BUS263"
BUS264E,"4th St & Montefiore St (SE Corner): BUS264E"
BUS264W,"4th St & Montefiore St (NW Corner): BUS264W"
BUS265,"South St & 4th St (SW Corner): BUS265"
BUS266,"9th St & Ferry St (NW Corner): BUS266"
BUS267,"Soldiers Home Rd & Cumberland (NW Corner): BUS267"
BUS268,"Klondike Rd & Snowdrop Dr (SE Corner): BUS268"
BUS268E,"Redpoint West Lafayette (on Cumberland Ave): BUS268E"
BUS269,"Harrison St & University St (NE Corner): BUS269"
BUS270,"Elston Rd & Beck Ln (West of): BUS270"
BUS271,"Purdue Memorial Union (PMU) on State St: BUS271"
BUS272N,"Halsey Dr & Nimitz Dr (NE Corner): BUS272N"
BUS274,"Underwood St & 20th St (SE Corner): BUS274"
BUS275,"Halsey Dr & Arnold Dr (NW Corner): BUS275"
BUS276,"Vinton St & Elmwood Ave (SE Corner): BUS276"
BUS277N,"SR 26 & Frontage Rd (NE Corner): BUS277N"
BUS277S,"SR 26 & Frontage Rd (SW Corner): BUS277S"
BUS278NE,"Greenbush St & Elmwood Ave (East of): BUS278NE"
BUS278SW,"Greenbush St & Elmwood Ave (SW Corner): BUS278SW"
BUS279,"9th St & State St (SE Corner): BUS279"
BUS280N,"Ferry St & 19th St (West of): BUS280N"
BUS280S,"Ferry St & 19th St (SW Corner): BUS280S"
BUS282NE,"MacArthur Dr & 1st St (at Shelter): BUS282NE"
BUS283,"Sagamore Pkwy W & Hunter Rd (SW Corner): BUS283"
BUS284,"Meridian St & Northwestern Ave (SE Corner): BUS284"
BUS285,"MacArthur Dr & 1st St (NW Corner): BUS285"
BUS287,"2nd St & Columbia St (NW Corner): BUS287"
BUS287NE,"Columbia St & 2nd St (NE Corner): BUS287NE"
BUS288,"Kossuth St & 11th St (SW Corner): BUS288"
BUS289,"Jischke Dr & 3rd St (SE Corner): BUS289"
BUS290,"Williams St & Grant St (NE Corner): BUS290"
BUS291NW,"Salisbury St & Stadium Ave (NW Corner): BUS291NW"
BUS292NW,"9th St & Hartford St (NW Corner): BUS292NW"
BUS292SE,"9th St & Hartford St (SE Corner): BUS292SE"
BUS293,"Salisbury St & Navajo St (at Shelter): BUS293"
BUS294,"Grant Street Station Apts (at Shelter): BUS294"
BUS295,"Wang Hall on Northwestern (at Crosswalk): BUS295"
BUS296,"Greenbush St & 12th St (Northeast of): BUS296"
BUS298,"McCarty Ln & Sagamore Pkwy S (East of): BUS298"
BUS299,"Meijer Ct & Meijer Dr (NE Corner): BUS299"
BUS300,"The Quarters on Lindberg (at Shelter): BUS300"
BUS301N,"Pheasant Run Apts on Brady Ln (at Shelter): BUS301N"
BUS301S,"Pheasant Run Apts on Brady Ln (South): BUS301S"
BUS302,"South St & Executive Dr (West of): BUS302"
BUS303,"14th St & King St (NW Corner): BUS303"
BUS304,"Blackbird Farms 2 on McCormick Rd: BUS304"
BUS305,"Columbia St & 14th St (NE Corner): BUS305"
BUS308,"Village West Apts on Lindberg (at Shelter): BUS308"
BUS309,"Columbia St & 12th St (NE Corner): BUS309"
BUS310,"Washington Ave & Kossuth St (SE Corner): BUS310"
BUS311,"Rural King on 26th St (at Shelter): BUS311"
BUS312,"The Quarters Clubhouse: BUS312"
BUS315N,"Shoshone Dr & Osage Dr (West of): BUS315N"
BUS316,"9th St & Rosemont St (NW Corner): BUS316"
BUS317,"Klondike Schools (SE Corner Center Drive): BUS317"
BUS319N,"Arnold Dr & Nimitz Dr (NE Corner): BUS319N"
BUS320,"Grant St & Wood St (SE Corner): BUS320"
BUS322,"Grant St & Harrison St (NW Corner): BUS322"
BUS323,"Grant St & Williams St (NW Corner): BUS323"
BUS324,"Lynn Hall on Harrison St: BUS324"
BUS325SE,"21st St & Elmwood Ave (SE Corner): BUS325SE"
BUS326,"S Chauncey Ave & Wood St (SE Corner): BUS326"
BUS327NE,"Logan Ave & El Prado Ave (NE Corner): BUS327NE"
BUS327SW,"Logan Ave & El Prado Ave (SW Corner): BUS327SW"
BUS328,"6th St & Union St (SE Corner): BUS328"
BUS329,"South St & 5th St (SW Corner): BUS329"
BUS330NE,"Greenbush St & 18th St (NE Corner): BUS330NE"
BUS330SW,"Greenbush St & 18th St (SW Corner): BUS330SW"
BUS331,"Teal Rd & 22nd St (East Of): BUS331"
BUS333NW,"Salisbury St & Meridian St (NW Corner): BUS333NW"
BUS333SE,"Salisbury St & Robinson St (SE Corner): BUS333SE"
BUS335,"Soldiers Home Rd & Sharon Rd (NE Corner): BUS335"
BUS336,"Pay Less on Beck Ln: BUS336"
BUS337NE,"Salisbury St & Grant St (NE Corner): BUS337NE"
BUS338,"Twyckenham Blvd & 18th St (NW Corner): BUS338"
BUS340N,"Twyckenham Blvd & 9th St (NW Corner): BUS340N"
BUS340S,"Twyckenham Blvd & 9th St (SW Corner): BUS340S"
BUS341,"Shenandoah Dr & Union St (SE Corner): BUS341"
BUS342,"Klondike Rd & US 52 (SE Corner): BUS342"
BUS343,"McDonalds on Old 231: BUS343"
BUS344,"Beck Ln and Cayuga Tr (NE Corner): BUS344"
BUS345,"Lilly Hall on State St (at Shelter): BUS345"
BUS346,"State St & McCutcheon Dr (West of): BUS346"
BUS348,"15th St & Greenbush St (NW Corner): BUS348"
BUS349,"Main St & 8th St (NE Corner): BUS349"
BUS350,"Main St & 6th St (NE Corner): BUS350"
BUS351,"Tippecanoe Co Public Library on South St: BUS351"
BUS352,"Harrison St & Martin Jischke Dr (NE Corner):BUS352"
BUS353,"24th St & Underwood St (North of): BUS353"
BUS354,"Brady Ln & 18th St (East of): BUS354"
BUS355,"Main St & 7th St (SW Corner): BUS355"
BUS358,"Main St & 6th St (SW Corner): BUS358"
BUS359,"E Fowler Ave & Littleton St (NW Corner): BUS359"
BUS361NW,"Happy Hollow Rd & Chippewa St (NW Corner): BUS361NW"
BUS361SE,"Happy Hollow Rd & Chippewa St (SE Corner): BUS361SE"
BUS362,"Wiley Dining/RSC on Jischke Dr: BUS362"
BUS363,"Main St & 5th St (SW Corner): BUS363"
BUS364,"Main St & 5th St (NE Corner): BUS364"
BUS365NW,"Salisbury St & Lindberg Rd (NW Corner): BUS365NW"
BUS365SE,"Salisbury St & Lindberg Rd (SE Corner): BUS365SE"
BUS366,"Jischke Dr & 3rd St (SW Corner): BUS366"
BUS367,"9th St & Union St (NW Corner): BUS367"
BUS367E,"Union St & 9th St (East of): BUS367E"
BUS367SE,"Union St & 9th St (SE Corner): BUS367SE"
BUS371,"Main St & 4th St (NE Corner): BUS371"
BUS372,"Meijer Ct & Meijer Dr (SW Corner): BUS372"
BUS373,"Tippecanoe Mall Entrance E: BUS373"
BUS375SE,"Lindberg Rd & Northwestern Ave (SE Corner): BUS375SE"
BUS375SW,"Northwestern Ave & Lindberg Rd (Southwest of): BUS375SW"
BUS375W,"Lindberg Rd & Northwestern Ave (Northwest of): BUS375W"
BUS376,"Cambridge Estates on SR 38: BUS376"
BUS378NW,"State St & Earl Ave (West of): BUS378NW"
BUS378SW,"State St & Earl Ave (SW Corner): BUS378SW"
BUS380NE,"Salem St & 9th St (NE Corner): BUS380NE"
BUS380NW,"Salem St & 9th St (NW Corner): BUS380NW"
BUS380SE,"Salem St & 9th St (SE Corner): BUS380SE"
BUS382N,"Union St & Sagamore Pkwy N (NW of): BUS382N"
BUS384,"South St & Executive Dr (SE Corner): BUS384"
BUS386,"South St & Red Cloud Trl (East of): BUS386"
BUS387,"University St & 2nd St (NW Corner): BUS387"
BUS389,"Beering Hall on University St: BUS389"
BUS390,"Sagamore Pkwy W & Morehouse Rd (SW Corner): BUS390"
BUS391NW,"Main St & Alabama St (NW Corner): BUS391NW"
BUS393,"SW Blackbird Farms Apt Buildings (E): BUS393"
BUS394,"SW Blackbird Farms Apt Buildings (W): BUS394"
BUS399,"4th St & Owen St (NW Corner): BUS399"
BUS401,"Union St & 14th St (SW Corner): BUS401"
BUS402,"Littleton St & Wiggins St: BUS402"
BUS403,"Walmart West Lafayette (at Shelter): BUS403"
BUS404NE,"Creasy Ln & US 52 (NE Corner): BUS404NE"
BUS405,"36th St & South St (NW Corner): BUS405"
BUS406,"South St & Brinker St (West of): BUS406"
BUS408,"Main St & 21st St (Northeast of): BUS408"
BUS409,"Shoshone Dr & Osage Dr (SW Corner): BUS409"
BUS410NE,"Brown St & 6th St (NE Corner): BUS410NE"
BUS410SE,"6th St & Brown St (SW Corner): BUS410SE"
BUS410SW,"Brown St & 6th St (SW Corner): BUS410SW"
BUS411,"36th & South St (NE Corner): BUS411"
BUS412,"Northwestern Ave & Columbia St (Chauncey Village): BUS412"
BUS413,"Ford Hall on Stadium (North Side): BUS413"
BUS414,"26th St & Gregory Ave (NW Corner): BUS414"
BUS415,"Purdue Airport Main Terminal: BUS415"
BUS416,"Summerfield Dr & Beck Ln (NW Corner): BUS416"
BUS417NE,"Airport Rd & Nimitz Dr (NE Corner): BUS417NE"
BUS417SE,"Airport Rd & Nimitz Dr (SE Corner): BUS417SE"
BUS417SW,"Airport Rd & Nimitz Dr (SW Corner): BUS417SW"
BUS418,"Cumberland Ave & Salisbury St (West of): BUS418"
BUS419,"State St & Newman Rd (SE Corner): BUS419"
BUS420,"18th St & Teal Rd (SE Corner): BUS420"
BUS421SW,"SR 38 & Kingsway Dr (SW Corner): BUS421SW"
BUS422E,"Canal Rd & 9th St (1A by Request): BUS422E"
BUS422W,"Canal Rd & 9th St (1A by Request): BUS422W"
BUS424,"Holloway Dr & Owen St (North of): BUS424"
BUS425S,"Wabash Landing on Brown St: BUS425S"
BUS426,"Stadium Parking Lot on Victory Dr (at Shelter): BUS426"
BUS427,"Westminster Village N & Salisbury (East): BUS427"
BUS428N,"Iroquois Tr & Summerfield Dr (Northwest of): BUS428N"
BUS428S,"Iroquois Tr & Summerfield Dr (SW Corner): BUS428S"
BUS431,"Cherry Ln & Northwestern Ave (South of): BUS431"
BUS435,"Class of 1950: BUS435"
BUS437E,"PayLess Supermarket on SR 38: BUS437E"
BUS437W,"PayLess on SR 38 (East of Shelter): BUS437W"
BUS439,"Russell St & 4th St (NW Corner): BUS439"
BUS440,"Harrison St and S Russell St (SW Corner): BUS440"
BUS441,"Union St & 18th St (SW Corner): BUS441"
BUS444NE,"Main St & Jackson St (North of): BUS444NE"
BUS444SW,"Main St & Jackson St (SW Corner): BUS444SW"
BUS448,"Stewart Center: BUS448"
BUS449N,"Brady Ln & Commanche Trl (NE Corner): BUS449N"
BUS449S,"Brady Ln & Commanche Trl (SE Corner): BUS449S"
BUS451,"Riggs Community Health Clinic (at Shelter): BUS451"
BUS452,"17th St & Greenbush St (SE Corner): BUS452"
BUS453,"Greenbush St & 28th St (East of): BUS453"
BUS454,"Stonecrest Apartments (at Shelter): BUS454"
BUS455N,"Salem Courthouse Apts (at Shelter): BUS455N"
BUS455S,"Salem Courthouse on Cumberland Ave (South of): BUS455S"
BUS456,"Purdue Village Bldgs 149-151: BUS456"
BUS458,"River Rd & Wood St (East of): BUS458"
BUS459NW,"Earl Ave & Cason St (NW Corner): BUS459NW"
BUS459SE,"Earl Ave & Cason St (SE Corner): BUS459SE"
BUS460,"Launch Apts (South Drive, SE Corner): BUS460"
BUS461,"Sams Club on Creasy Ln: BUS461"
BUS462,"SR 38 at Lafayette Marketplace: BUS462"
BUS464,"Pemberly Cts on Klondike Rd: BUS464"
BUS466W,"22nd St & JR Hiatt Dr (NW Corner): BUS466W"
BUS467,"22nd St & Teal Rd (North of): BUS467"
BUS468,"Rome Dr & Creasy Ln (SW Corner): BUS468"
BUS469N,"Georgetown Apts on Shoshone Dr (North): BUS469N"
BUS469S,"Georgetown Apts on Shoshone Dr (South): BUS469S"
BUS470,"Hillenbrand Hall on 3rd St (South): BUS470"
BUS472N,"Hilltop Dr & Tower Dr (NE Corner): BUS472N"
BUS472S,"Hilltop Dr & Tower Dr (SE Corner): BUS472S"
BUS473,"Hillenbrand Hall on 3rd St (North): BUS473"
BUS475,"South St & 36th St (Southeast of): BUS475"
BUS476,"Northwestern Ave & Carrolton Blvd (NW Corner): BUS476"
BUS482NW,"Main St & Scott St (NW Corner): BUS482NW"
BUS482SE,"Main St & Scott St (SE Corner): BUS482SE"
BUS483N,"Marshall Dr & Nimitz Dr (NE Corner): BUS483N"
BUS484,"Park Ridge Dr & Salisbury St (SE Corner): BUS484"
BUS485,"Shenandoah Dr & Union St (NW Corner): BUS485"
BUS487W,"Earl Ave & Ferry St (NW Corner): BUS487W"
BUS488,"17th St & Tippecanoe St (SW Corner): BUS488"
BUS489,"River Rd & Wood St (SW Corner): BUS489"
BUS491E,"McCutcheon Hall on McCutcheon (@Shelter): BUS491E"
BUS491W,"McCutcheon Hall on McCutcheon: BUS491W"
BUS492,"Brown St & 4th St (NE Corner): BUS492"
BUS493,"Happy Hollow School on Salisbury(SE Corner):BUS493"
BUS494,"Fairgrounds on Teal Rd (Teal Rd Entrance): BUS494"
BUS498,"Wake Robin Dr & Lindberg Rd (NE Corner): BUS498"
BUS499,"SR 38 & Creasy Ln (West of): BUS499"
BUS499N,"Creasy Ln & SR 38/25 (North of, West Side): BUS499N"
BUS501,"McCormick Rd & Third St : BUS501"
BUS502,"Art Museum on 9th St: BUS502"
BUS503,"Walmart (East Lafayette): BUS503"
BUS504,"McCormick Rd & 3rd Street: BUS504"
BUS506,"Main St & McCarty Ln (Southeast of): BUS506"
BUS507E,"Portledge Commons Apts on Earl Ave: BUS507E"
BUS507W,"Portledge Commons Apts on Earl Ave: BUS507W"
BUS508NE,"Greenbush St & 14th St (NE Corner): BUS508NE"
BUS508SW,"14th St & Greenbush St (South of): BUS508SW"
BUS509NE,"Jischke Dr & Tower Dr (NE Corner): BUS509NE"
BUS509SE,"Tower Dr & Jischke Dr (SE Corner): BUS509SE"
BUS509SW,"Jischke Dr & Tower Dr (SW Corner): BUS509SW"
BUS511NW,"Cumberland Ave & Kent Ave (North West of):BUS511NW"
BUS511SW,"Cumberland Ave & Kent Ave (South West of):BUS511SW"
BUS512,"9th St  & Greenbush St (SE Corner): BUS512"
BUS513,"Shenandoah Dr & Greenbush St (SW Corner): BUS513"
BUS515,"Teal Rd & Crestview Ct (NE Corner): BUS515"
BUS519E,"Salem St & Fannon (NE Corner): BUS519E"
BUS519W,"Fannon & Salem St (NW Corner): BUS519W"
BUS521,"Beck Ln & Davis Dr (SW Corner): BUS521"
BUS522,"Williams St & Salisbury St (NW Corner): BUS522"
BUS523,"Williams St & Salisbury St (SW Corner): BUS523"
BUS525,"Main St & McCarty Ln (West of): BUS525"
BUS526NE,"Chauncey Ct & Greenbush St (NE Corner): BUS526NE"
BUS526SW,"Chauncey Ct & Greenbush St (SW Corner): BUS526SW"
BUS528,"9th St & King St (SE Corner): BUS527"
BUS530,"Northwestern Ave & Stadium Ave (McDonalds): BUS530"
BUS530N,"Stadium Ave & Garfield St: BUS530N"
BUS530S,"Dodge St & Garfield St (SW Corner): BUS530S"
BUS531NE,"Main St & Earl Ave (Northeast of) : BUS531NE"
BUS531SW,"Main St & Earl Ave (SW Corner): BUS531SW"
BUS532NE,"Ferry St & 8th St (NE Corner): BUS532NE"
BUS532SW,"Ferry St & 8th St (SW Corner): BUS532SW"
BUS534N,"Ferry St & 6th St (NE Corner): BUS534N"
BUS534S,"Ferry St & 6th St (SW Corner): BUS534S"
BUS537,"Beck Ln & 9th St (East of): BUS537"
BUS538,"Electrical Engineering: BUS538"
BUS539,"Stinger St & Creasy Ln (SE Corner): BUS539"
BUS540,"Pi Beta Phi on Russell St"
BUS541,"Cumberland Ave & Browning St (NE Corner): BUS541"
BUS542,"Ferry St & 26th St (NE Corner at Shelter): BUS542"
BUS543NE,"Gates Rd & Nimitz Dr (NE Corner): BUS543NE"
BUS543SE,"Gates Rd & Nimitz Dr (SE Corner): BUS543SE"
BUS544NE,"Logan Ave & 14th St (NE Corner): BUS544NE"
BUS545N,"Ferry St & 23rd St (NE Corner): BUS545N"
BUS545S,"Ferry St & 23rd St (East of): BUS545S"
BUS546N,"14th St & Hartford St (NW Corner): BUS546N"
BUS546W,"Hartford St & 14th St (at Shelter): BUS546W"
BUS547,"State St & Russell St (NE Corner): BUS547"
BUS548NE,"Ferry St & 21st St (NE Corner): BUS548NE"
BUS548SW,"Ferry St & 21st St (SW Corner): BUS548SW"
BUS549N,"Fowler House Apts on Ferry St (North): BUS549N"
BUS549S,"Fowler House Apts on Ferry St (South): BUS549S"
BUS552SE,"36th St & Union St (SE Corner): BUS552SE"
BUS552SW,"Union St & 36th St (SW Corner): BUS552SW"
BUS553,"Circle Pines on David Ross Rd (NW Corner): BUS553"
BUS554E,"Alpha Chi on David Ross Rd (East): BUS554E"
BUS554W,"Alpha Chi on David Ross Rd (West): BUS554W"
BUS557,"Physics (pulloff on Northwestern): BUS557"
BUS559,"Northwestern Ave & Wiggins St (NW of): BUS559"
BUS561,"Lambert Fieldhouse on University St: BUS561"
BUS562N,"Theta Chi on Tower Dr (North): BUS562N"
BUS562S,"Theta Chi on Tower Dr (South): BUS562S"
BUS563,"PUSH at University St & 5th St"
BUS564,"4th St & Wall St (SE Corner): BUS564"
BUS566,"Purdue West on State St: BUS566"
BUS567,"Ford Hall on Stadium Ave: BUS567"
BUS568,"Earhart Hall on First St (North Side) : BUS568"
BUS569,"PUSH at University St & 5th St"
BUS572,"Georgetown Rd & Klondike Rd (NW Corner): BUS572"
BUS575,"9th St & Kossuth St (South of): BUS575"
BUS580,"River Rd & Howard Ave (SW of Corner): BUS580"
BUS582,"Salisbury St & Grant St (South of): BUS582"
BUS584NE,"1st St & Jischke Dr (NE Corner): BUS584NE"
BUS584NW,"Jischke Dr & 1st St (NW Corner): BUS584NW"
BUS584SE,"1st St & Jischke Dr (SE Corner): BUS584SE"
BUS594,"Cumberland Pointe on Cumberland(NE Corner):BUS594"
BUS595E,"Parkway Apts on Happy Hollow: BUS595E"
BUS595W,"Parkway Apts on Happy Hollow: BUS595W"
BUS596,"Happy Hollow Rd & Knox Dr (NW Corner): BUS596"
BUS597E,"Pathway Ln & Happy Hollow Rd (SE Corner): BUS597E"
BUS597W,"Happy Hollow Rd & Pathway Ln (SW Corner): BUS597W"
BUS598,"Harrison St & Grant St (SW Corner): BUS598"
BUS599W,"Happy Hollow Rd & Laurel Dr (SW Corner): BUS599W"
BUS600E,"Catherwood Dr & Happy Hollow Rd (East of): BUS600E"
BUS600N,"Happy Hollow Rd & Catherwood Dr(NE Corner):BUS600N"
BUS601,"Arnett Clinic on Mezzanine Dr: BUS601"
BUS602E,"River Rd & Robinson St (North of, East): BUS602E"
BUS602W,"River Rd & Robinson St (NW Corner): BUS602W"
BUS610,"Salisbury St. and Kent Ave (north of): BUS610"
BUS613,"Hartman Ct & Soldiers Home Rd (SE Corner): BUS613"
BUS615,"Mezzanine Dr & Park East Blvd (SW Corner): BUS615"
BUS616,"Heritage Health Care on Soldiers Home Rd: BUS616"
BUS622,"Dodge St & Grant St (SW Corner): BUS622"
BUS623NW,"Carlisle Rd & Windsor Dr (NW Corner): BUS623NW"
BUS623SE,"Carlisle Rd & Windsor Dr (SE Corner): BUS623SE"
BUS624E,"Sycamore Ln & Carlisle Rd (SE Corner): BUS624E"
BUS624W,"Sycamore Ln & Carlisle Rd (West of): BUS624W"
BUS625,"Park East Blvd & Retail Dr (SW Corner): BUS625"
BUS626NW,"Montgomery St & Yeager Rd (NW Corner): BUS626NW"
BUS626SE,"Montgomery St & Yeager Rd (SE Corner): BUS626SE"
BUS627,"Vicksburg Ln & Mason Dixon Dr (SW Corner): BUS627"
BUS628,"Roundtable Dr & Mason Dixon (SE Corner): BUS628"
BUS629,"Garden St & Northwestern (NW Corner): BUS629"
BUS630,"Military Ct & Mason Dixon Dr (NE Corner): BUS630"
BUS631E,"Abnaki Dr & Morehouse Rd: BUS631E"
BUS631W,"Abnaki Dr & Morehouse Rd: BUS631W"
BUS632,"Garden St & Northwestern (SE Corner): BUS632"
BUS633NW,"Salisbury St & Sycamore Ln (NW Corner): BUS633NW"
BUS633SE,"Salisbury St & Sycamore Ln (SE Corner): BUS633SE"
BUS634,"Stadium Ave & Grant St (NE Corner): BUS634"
BUS635,"Stadium Ave & Vine St (SW Corner): BUS635"
BUS636NW,"Salisbury St & Dehart St (NW Corner): BUS636NW"
BUS636SE,"Salisbury St & Dehart St (SE Corner): BUS636SE"
BUS637NW,"Salisbury St & Rockland Dr (NW Corner): BUS637NW"
BUS637SE,"Salisbury St & Rockland Dr (SE Corner): BUS637SE"
BUS638,"Salisbury St & Creighton Rd (NE Corner): BUS638"
BUS644,"Wabash Landing on State St (at Roebuck Dr): BUS644"
BUS647,"Stadium Ave & Vine St (NE Corner): BUS647"
BUS648,"Alabama St & 3rd Street (West of)"
BUS650,"McCarty Ln & Sickle Ct (NW Corner): BUS650"
BUS651,"McCarty Ln & Landmark Dr (NE Corner): BUS651"
BUS653NE,"Old US 231S & Windy Hill Dr (North Side): BUS653NE"
BUS653SW,"Old US 231S & Windy Hill Dr (South Side): BUS653SW"
BUS655,"Elston Point Apts on Elston Rd(NE Corner): BUS655"
BUS656,"McCarty Ln & Kepner Dr (NE Corner): BUS656"
BUS657,"Holloway Dr & Washington St (SE Corner): BUS657"
BUS658,"CR 10 W & Twyckenham Blvd (SW Corner): BUS658"
BUS659,"South St & 10th St (West of): BUS659"
BUS660,"McCarty Ln & Industrial Dr (NE Corner): BUS660"
BUS661,"South St & McGrath Ave (West of): BUS661"
BUS662,"18th St & Congress St (NE Corner): BUS662"
BUS663NE,"Main St & S 25th St (NE Corner): BUS663NE"
BUS663SE,"Main St & S 25th St (South of): BUS663SE"
BUS664NW,"Main St & S 28th St (NW Corner): BUS664NW"
BUS664SE,"Main St & S 28th St (SE Corner): BUS664SE"
BUS665,"4th St & Williams Ridge/Saw Mill Rd: BUS665"
BUS667,"Lafayette Marketplace: BUS667"
BUS668,"Kirby Riskk Manufacturing Center"
BUS669,"McCarty Ln & Sagamore Pkwy S (East of): BUS669"
BUS671,"Wendys at Tippecanoe Mall (North Side): BUS671"
BUS672,"Wendys at Tippecanoe Mall (South Side): BUS672"
BUS673,"Dicks at Tippecanoe Mall: BUS673"
BUS674,"Columbia St & 6th St (NE Corner): BUS674"
BUS675,"Columbia St & 5th St (NE Corner): BUS675"
BUS676,"Sears at Tippecanoe Mall: BUS676"
BUS677,"SR 38 & Kingsway Dr (Northeast of): BUS677"
BUS678,"Main St & Sagamore Pkwy S (NW Corner): BUS678"
BUS679,"Bishop Woods on 9th St (West Side): BUS679"
BUS681,"Creasy Ln & Amelia Ave (NE Corner): BUS681"
BUS682S,"Edgelea School on Beck Ln (West Drive): BUS682S"
BUS683,"9th St & Hitt St (NW Corner): BUS683"
BUS690,"South St & 23rd St (NE Corner): BUS690"
BUS691,"South St & 19th St (NE Corner): BUS691"
BUS692,"South St & Main St (NE Corner): BUS692"
BUS693,"9th St & Sarasota Dr (SW Corner): BUS693"
BUS694NE,"South St & 26th St (NE Corner)"
BUS694SW,"South St & 26th St (SW Corner)"
BUS695NE,"South St & 29th St (NE Corner)"
BUS695SW,"South St & 29th St (SW Corner)"
BUS696NE,"South St @ RRX"
BUS696SW,"South St & Earl Ave (SW Corner)"
BUS697,"9th St & Central Ave (SE Corner): BUS697"
BUS698,"Historical Museum on 9th St (West Side): BUS698"
BUS699SW,"South St & Sagamore Pkwy S (SW Corner)"
BUS700,"Beck Ln & Limestone Ln (NE Corner): BUS700"
BUS701,"Poland Hill Rd and Beck Ln (South of)"
BUS702,"Poland Hill Rd & Matterhorn Pl (SE Corner): BUS702"
BUS703S,"Poland Hill & Twyckenham Blvd (East of): BUS703S"
BUS704N,"Twyckenham Blvd & Rampart St (NE Corner): BUS704N"
BUS704S,"Twyckenham Blvd & Quarry Dr (SW Corner): BUS704S"
BUS707S,"Brady Ln & Pipers Glen Dr (SW Corner): BUS707S"
BUS708,"Brady Ln & Winter St (SW Corner): BUS708"
BUS710S,"Village Pantry on Brady Ln (South Side): BUS710S"
BUS711N,"Brady Ln & Imperial Pkwy (NE Corner): BUS711N"
BUS711S,"Brady Ln & Imperial Pkwy (SW Corner): BUS711S"
BUS712,"Brady Ln & Reagan Dr (SW Corner): BUS712"
BUS713,"Brady Ln East of Reagan Dr (North): BUS713"
BUS717,"Guaranteed Transmission on SR 38: BUS717"
BUS719,"Torchwood Dr & SR 38 (SW Corner): BUS719"
BUS720,"Brady Ln & Portsmouth Dr W (NE Corner): BUS720"
BUS721,"Greenbush St & Melbourne Rd (West of): BUS721"
BUS723,"18th St & Center St (North of): BUS723"
BUS724,"18th St & Congress St (NW Corner): BUS724"
BUS725E,"18th St & Adams St (SE Corner): BUS725E"
BUS725W,"18th St & Adams St (NW Corner): BUS725W"
BUS726N,"State St & 20th St (NE Corner): BUS726N"
BUS726S,"State St & 20th St (SW Corner): BUS726S"
BUS727,"State St & 22nd St (SW Corner): BUS727"
BUS729,"Osage Dr & Iroquois Tr (NW Corner): BUS729"
BUS730,"Summerfield Dr & Hiawatha Ln (NW Corner): BUS730"
BUS731E,"Commanche Tr & Beck Ln (SE Corner): BUS731E"
BUS735E,"Commanche Trl & Shasta Dr (South of): BUS735E"
BUS736,"Commanche Tr & Yuma Ave (SE Corner): BUS736"
BUS737,"Summerfield Dr & Maumee Pl (SE Corner): BUS737"
BUS738,"18th St & Iroquois Tr (SE Corner): BUS738"
BUS739,"18th St & Shoshone Dr (NE Corner): BUS739"
BUS740,"18th St & Everett St (SE Corner): BUS740"
BUS744,"Brown St & 5th St (SW Corner): BUS744"
BUS745,"Cincinnati St & 6th St (SE Corner): BUS745"
BUS746,"Tippecanoe Co. Health Dept. on 6th St: BUS746"
BUS748,"Cincinnati St & 7th St (NE Corner): BUS748"
BUS750,"Greenbush St & 16th St (NE Corner): BUS750"
BUS753,"RRX on Greenbush St (SW Corner): BUS753"
BUS754,"Airport Rd & Halsey Dr (SE Corner): BUS754"
BUS755,"Airport Rd & Halsey Dr (SW Corner) BUS755"
BUS757NW,"S Navarre Dr & Shenandoah (NW Corner): BUS757NW"
BUS757SE,"S Navarre Dr & Shenandoah (SE Corner): BUS757SE"
BUS759E,"S Driftwood & Shenandoah Dr (SE Corner): BUS759E"
BUS759W,"S Driftwood & Shenandoah Dr (SW Corner) : BUS759W"
BUS760,"Executive Dr & Rome Dr (NE Corner): BUS760"
BUS762,"The Pavilions & Creasy Ln: BUS762"
BUS763E,"Fortune Dr & Creasy Ln (SE Corner): BUS763E"
BUS763W,"Creasy Ln & Fortune Dr (SE Corner): BUS763E"
BUS764,"Twyckenham Blvd & Old US 231S (East of):BUS764"
BUS765NE,"Julia Ln & Sickle Ct (NE Corner) : BUS765NE"
BUS765NW,"Sickle Ct & Julia Ln (NW Corner): BUS765NW"
BUS766E,"Sickle Ct & McCarty Ln (NE Corner): BUS766E"
BUS766W,"McCarty Ln & Sickle Ct (NW Corner): BUS766W"
BUS768,"Creasy Ln (Across from Burberry Dr): BUS768"
BUS769NW,"Amelia Ave & Creasy Ln (NW Corner): BUS769NW"
BUS770NW,"Creasy Ct & Creasy Ln (NW Corner): BUS770NW"
BUS770SE,"Creasy Ct & Creasy Ln (SE Corner): BUS770SE"
BUS771,"Starbucks Coffee on Creasy Ln: BUS771"
BUS772,"Creasy Ln & SR 38 (Northeast of): BUS772"
BUS773,"Burberry Place on Creasy Ln (SE Corner): BUS773"
BUS774N,"Emerald Pines & McCarty Ln (NE Corner): BUS774N"
BUS775NE,"Harper Dr & Creasy Ln (NE Corner): BUS775NE"
BUS775SW,"Stinger St & Harper Dr (SW Corner): BUS775SW"
BUS776,"Beck Ln & 18th St (West of): BUS776"
BUS777,"Culvers on Rome Dr (North Side): BUS777"
BUS778,"Shenandoah Dr & Amherst Dr (SE Corner): BUS778"
BUS780,"Hemlock Rd & Greenbush St (NE Corner): BUS780"
BUS781,"Greenbush St & 29th St (West of): BUS781"
BUS783NW,"9th St & Cincinnati St (NW Corner): BUS783NW"
BUS783SE,"9th St & Cincinnati St (SE Corner): BUS783SE"
BUS786,"St Anthony Health Care: BUS786"
BUS787,"14th St & Howell St (NW Corner): BUS787"
BUS789SW,"Hartford St & 12th St (SW Corner): BUS789SW"
BUS793,"RRX on Union St (NE Corner): BUS793"
BUS794N,"Ferry St & 10th St (North Side): BUS794N"
BUS794S,"Ferry St & 10th St (South Side): BUS794S"
BUS796N,"Ferry St & Erie St (West of) : BUS796N"
BUS796S,"Ferry St & Erie St (SW Corner): BUS796S"
BUS797N,"Ferry St & Perrin Ave (West of): BUS797N"
BUS797S,"Ferry St & Perrin Ave (SW Corner): BUS797S"
BUS798NE,"Ferry St & Asher St (NE Corner): BUS798NE"
BUS798SW,"Ferry St & Asher St (SW Corner): BUS798SW"
BUS800,"Russell St & 6th St (SE Corner): BUS800"
BUS801,"Village West Clubhouse on Willowbrook Dr: BUS801"
BUS802,"Willowbrook Dr & Willowbrook Cr (North of): BUS802"
BUS804,"Honors College on Russell St: BUS804"
BUS805,"Russell St & 2nd St (NE Corner): BUS805"
BUS806,"South St & Eastland Dr (West of): BUS806"
BUS807,"Manitou Dr & 18th St (NW Corner): BUS807"
BUS808,"Commerce Dr & Marketplace Dr (SW Corner): BUS808"
BUS810,"Russell St & 4th St (SE Corner): BUS810"
BUS811,"Target on South St (@ 5th/3rd Bank): BUS811"
BUS812,"Shenandoah Dr & Rome Dr (NE Corner): BUS812"
BUS813E,"36th St & Coleman Ct (North of): BUS813E"
BUS813W,"36th St & Coleman Ct (NW Corner @ Bench): BUS813W"
BUS815,"18th St & JR Hiatt (SW Corner): BUS815"
BUS816,"South St & Creasy Ln (Southeast of): BUS816"
BUS818,"8th St & Union St (SW Corner): BUS818"
BUS819,"McCarty Ln & Park East Blvd (NE Corner): BUS819"
BUS820,"Rome Dr & Shenandoah Dr (at  Shelter): BUS820"
BUS821,"12th St & Union St (SW Corner): BUS821"
BUS822,"Union St & 15th St (East of): BUS822"
BUS824,"Soldiers Home Rd & Prophet Dr (SW of): BUS824"
BUS825,"21st St & Cobblestone Ct: BUS825"
BUS827,"Elmwood Ave & 27th St (SE Corner): BUS827"
BUS829,"Elmwood Ave & Prairie Ln (SE Corner): BUS829"
BUS830,"27th St & Underwood St (South of): BUS830"
BUS831,"South St & Creasy Ln (West of): BUS831"
BUS835,"Market Square Shopping Center: BUS835"
BUS838,"Speedway on Elmwood Ave (NE Corner): BUS838"
BUS839,"18th St & Salem St (North of): BUS839"
BUS840,"Salem St &16th St (West of): BUS840"
BUS841,"Elmwood Avenue & Greenbush St: BUS841"
BUS842,"Village Pantry on Salem St: BUS842"
BUS843,"11th St & Salem St (NE Corner): BUS843"
BUS845,"Salem St & 7th (NE Corner): BUS845"
BUS847,"Tippecanoe & 14th St (East of): BUS847"
BUS848,"21st St & Union St: BUS848"
BUS849,"17th St & Howell St (SE Corner): BUS849"
BUS850,"Wabash Center on 20th St (at Shelter): BUS850"
BUS851,"Meharry St & 20th St (SE Corner): BUS851"
BUS852,"Perrine St & 20th St (SE Corner): BUS852"
BUS854,"Albany St & 24th St (SE Corner): BUS854"
BUS857,"14th St & Logan Ave (NW Corner): BUS857"
BUS858,"Schuyler Ave & 18th St (NE Corner): BUS858"
BUS859,"Star Lanes on Schuyler Ave: BUS859"
BUS860,"Barbee St & Schuyler Ave (at Shelter): BUS860"
BUS861,"Hart St & 15th St (NW Corner): BUS861"
BUS862,"Ball St & 15th St (NW Corner): BUS862"
BUS863,"21st St & Schuyler Ave (NE Corner): BUS863"
BUS865,"18th St & Eastway St (NW Corner): BUS865"
BUS866,"18th St and Twyckenham Blvd: BUS866"
BUS869,"18th St & Normandy Dr (NW Corner): BUS869"
BUS871,"18th St & Ortman Ln (NW Corner): BUS871"
BUS873,"18th St & Waverly Dr (NW Corner): BUS873"
BUS873NE,"Northend Community Center"
BUS874,"Valley Lakes Center on Vet Mem Pkwy S: BUS874"
BUS875NE,"Veterans Mem Pkwy S & Regal Valley Dr: BUS875NE"
BUS875SW,"Vet Mem Pkwy S & Regal Valley Dr: BUS875SW"
BUS876,"Foxfire Apts on Veterans Mem Pkwy S: BUS876"
BUS877,"Promenade Pkwy & Veterans Memorial Pkwy S: BUS877"
BUS879,"Creasy Ln & South St (North of, East Side): BUS879"
BUS880,"Veterans Mem Pkwy S & Cheryl Ln (West of) : BUS880"
BUS881,"Veterans Mem Pkwy S & IFCU Dr (West of): BUS881"
BUS883,"18th St & Bridgewater Cir (SE Corner): BUS883"
BUS884,"18th St & Summertime Tr (SE Corner): BUS884"
BUS887,"Chilton Park on Chilton Dr (S Roundabout):BUS887"
BUS889,"Concord Rd & Marcasite Dr (NW Corner): BUS889"
BUS891,"Paramount Dr and Pacific Dr (SE Corner): BUS891"
BUS892,"Pink Walrus Yogurt: BUS892"
BUS893,"Walmart (South Lafayette) (West of Entr): BUS893"
BUS894,"Lark West Lafayette: BUS894"
BUS895,"McCarty Ln & Emerald Pine Ct: BUS895"
BUS896,"Executive Dr & Rome Dr (SE Corner): BUS896"
BUS897,"Northwestern Ave & Windsor DR (SW of): BUS897"
BUS898,"First Street Towers on State St: BUS898"
BUS899,"Morgan & Jischke Dr (NW Corner): BUS899"
BUS900,"Discovery Learning Center: BUS900"
BUS901,"Hillcrest Rd & Northwestern (SE Corner): BUS901"
BUS902,"Blueberry Ln & Klondike Rd (NW Corner): BUS902"
BUS903,"Rosewood Dr & Klondike Rd (NW Corner): BUS903"
BUS904,"Longspur Dr & Lindberg Rd (NE Corner): BUS904"
BUS905,"Robin Hood Ln & Lindberg Rd (NE Corner): BUS905"
BUS906E,"Schwartz Tennis Cntr on McCormick (East): BUS906E"
BUS906W,"Schwartz Tennis Cntr on McCormick (West): BUS906W"
BUS910,"Valley Plaza on 4th St (South Driveway): BUS910"
BUS915,"Creasy Ln & St. Francis Way (NW Corner): BUS915"
BUS917,"18th St & Troxel Ct: BUS917"
BUS918,"Prospect Hill Apts on 18th: BUS918"
BUS920NW,"Claremont Ln & Shenandoah Dr(NW Corner): BUS920NW"
BUS920SE,"Claremont Ln & Shenandoah Dr(SE Corner): BUS920SE"
BUS921,"Linnwood Park: BUS921"
BUS922,"Christina & Co Cumberland Ave (SE Corner): BUS922"
BUS923,"St Elizabeth Hospital on Creasy (SE Corner):BUS923"
BUS924,"Salisbury St & Riley Ln (South of): BUS924"
BUS926,"Soldiers Home Rd & Myrtle Dr (NW of): BUS926"
BUS927NW,"Broadview Rd & Soldiers Home(NW Corner): BUS927NW"
BUS927SE,"Broadview Rd & Soldiers Home(SE Corner): BUS927SE"
BUS928NE,"Veterans Home Entrance (North Side): BUS928NE"
BUS928SE,"Veterans Home Entrance on Soldiers Home: BUS928SE"
BUS929,"Lincoln Hall at Indiana Veterans Home: BUS929"
BUS930,"Dehart Hall at Indiana Veterans Home: BUS930"
BUS931,"Mitchell Hall at Indiana Veterans Home: BUS931"
BUS932,"Pyle Hall at Indiana Veterans Home: BUS932"
BUS933,"Ingersol Hall at Indiana Veterans Home: BUS933"
BUS936NE,"Soldiers Home & Overlook Dr (NE Corner): BUS936NE"
BUS937,"22nd St & Underwood St (SW Corner): BUS937"
BUS938,"Elmwood Ave & 27th St (West of): BUS938"
BUS939,"South St & 16th St (SW Corner): BUS939"
BUS940,"18th St & Larue St (South of): BUS940"
BUS941NW,"Creasy Ln & Bonlou (Menards Entrance): BUS941NW"
BUS941SE,"Creasy Ln & Bonlou (SE Corner): BUS941SE"
BUS942,"Summerfield Dr & Ottawa Dr (SE Corner): BUS942"
BUS944N,"West View Apts on Kalberer Rd (North): BUS944N"
BUS944S,"West View Apts on Kalberer Rd (South): BUS944S"
BUS945SW,"Kent Ave & Kalberer Rd (SW Corner): BUS945SW"
BUS946,"SR 38 @ Golden Lion: BUS946"
BUS947,"Main St & Congress St (North of): BUS947"
BUS948,"Professional Ct & SR 38 (SW Corner): BUS948"
BUS949,"W Fowler Ave & Vine St (NW Corner): BUS949"
BUS950,"Wiggins St & Vine St (SW Corner): BUS950"
BUS951,"Salisbury St & Wiggins St (SW Corner): BUS951"
BUS952,"Lindberg & Northwestern (North East of): BUS952"
BUS955,"Kent Ave @ Purdue Research Center: BUS955"
BUS956,"Win Hentschel Blvd & MED Institute: BUS956"
BUS957,"Mcclure Ave @ Kurz Tech Center: BUS957"
BUS959,"Soldiers Home Rd & Linda Ln: BUS959"
BUS960,"ZF on 9th St: BUS960"
BUS961,"Village Pantry on Brady Ln (North Side): BUS961"
BUS962,"South St & Douglas St (SW Corner): BUS962"
BUS963,"18th St & Meadow Dr (South of): BUS963"
BUS964,"Cumberland Ave & Yeager Rd (SW Corner): BUS964"
BUS966,"Griffin Hall on Creasy Ln: BUS966"
BUS967,"South St & Thompson St (SW Corner): BUS967"
BUS968,"McCarty Ln & Mezzannine"
BUS969,"Commerce Dr & Fairington Ave (East of): BUS969"
BUS970,"Commerce Dr & Park East (SW Corner): BUS970"
BUS971,"RRX on Union St (SW Corner): BUS971"
BUS974,"Old Romney Rd & Elston Rd (SE Corner): BUS974"
BUS975,"Elston Rd &  S Beck Ln (SW Corner): BUS975"
BUS976,"Elston Rd & Breckenridge St (SW of): BUS976"
BUS979,"Owen St & 4th St (West of): BUS979"
BUS982,"IU Arnett Hospital: BUS982"
BUS986N,"Logan Ave & 18th St (West of): BUS986N"
BUS986S,"Logan Ave & 18th St (SW Corner): BUS986S"
BUS987NW,"9thSt & Roberts St (NW Corner): BUS987NW"
BUS987SE,"9th St & Roberts St (SE Corner): BUS987SE"
BUS990,"18th St at RRX (at Trailhead): BUS990"
BUS991,"South Tipp Park: BUS991"
BUS992,"St. Elizabeth Hospital: BUS992"
BUS994,"McCarty Ln & Kepner Dr (SW Corner): BUS994"
BUS995,"McCarty Ln & Landmark Dr (South of): BUS995"
BUS996,"McCarty Ln & Burberry Dr (SW Corner): BUS996"
BUS997,"Mezzanine Dr & McCarty Ln (Northwest of): BUS997"
BUSLSS,"Lafayette SunnySide School"
TEMP,"Tilbury Dr & US 231 S"
TEMP04,"Russell & 6th"
TEMP06,"Northwestern Ave & Cherry Lane (NW Corner): TEMP06"
TEMP17,"Harrison St & Sheetz St (NE Corner): TEMP17"
TEMP584SW,"1st St & Jischke Dr (SW Corner): TEMP584SW"
TEMP899,"Morgan & Jischke Dr (SE Corner)"
